City,Lat,Lng,Max Temp,Humidity,Cloudiness,Wind Speed,Country,Date
butaritari,3.0707,172.7902,81.45,71.0,51.0,7.29,KI,1666491224.0
shieli,44.1667,66.75,43.93,74.0,31.0,5.7,KZ,1666491562.0
new norfolk,-42.7826,147.0587,56.57,74.0,100.0,4.0,AU,1666491121.0
chokurdakh,70.6333,147.9167,12.6,95.0,100.0,10.78,RU,1666491329.0
alofi,-19.0595,-169.9187,77.79,79.0,100.0,10.09,NU,1666491298.0
port lincoln,-34.7333,135.8667,60.17,82.0,99.0,21.09,AU,1666491331.0
rikitea,-23.1203,-134.9692,72.05,80.0,100.0,20.09,PF,1666491563.0
ankpa,7.3706,7.6253,72.84,85.0,95.0,2.73,NG,1666491563.0
hobart,-42.8794,147.3294,56.91,62.0,75.0,19.57,AU,1666491267.0
hobyo,5.3505,48.5268,77.99,81.0,98.0,13.49,SO,1666491377.0
komsomolskiy,40.4272,71.7189,54.32,66.0,99.0,6.91,UZ,1666491564.0
bathsheba,13.2167,-59.5167,81.21,83.0,20.0,9.22,BB,1666491565.0
avarua,-21.2078,-159.775,80.65,78.0,20.0,6.91,CK,1666491287.0
pierre,44.3683,-100.351,45.52,70.0,0.0,4.61,US,1666491565.0
saint-philippe,-21.3585,55.7679,69.39,86.0,99.0,9.1,RE,1666491307.0
east london,-33.0153,27.9116,64.18,81.0,15.0,12.77,ZA,1666491250.0
ilulissat,69.2167,-51.1,39.22,52.0,100.0,20.71,GL,1666491376.0
provideniya,64.3833,-173.3,32.16,95.0,93.0,7.61,RU,1666491250.0
bereda,43.2686,-7.5406,58.41,81.0,15.0,13.31,ES,1666491566.0
turukhansk,65.8167,87.9833,23.47,95.0,85.0,11.92,RU,1666491355.0
bambous virieux,-20.3428,57.7575,69.22,94.0,40.0,4.61,MU,1666491292.0
mataura,-46.1927,168.8643,68.56,37.0,100.0,11.03,NZ,1666491231.0
botwood,49.1499,-55.3482,45.9,78.0,0.0,8.86,CA,1666491566.0
tongchuan,35.0806,109.0897,63.86,26.0,100.0,2.24,CN,1666491567.0
cascais,38.6979,-9.4215,64.94,91.0,100.0,21.0,PT,1666491567.0
vila,42.0304,-8.1588,50.88,93.0,92.0,17.69,PT,1666491287.0
souillac,-20.5167,57.5167,66.58,94.0,40.0,4.61,MU,1666491283.0
high prairie,55.4334,-116.4858,36.66,93.0,100.0,5.32,CA,1666491568.0
kamiiso,41.8167,140.65,52.18,66.0,75.0,13.8,JP,1666491568.0
zhigansk,66.7697,123.3711,16.57,96.0,98.0,10.83,RU,1666491219.0
puerto ayora,-0.7393,-90.3518,67.55,91.0,93.0,8.01,EC,1666491088.0
bredasdorp,-34.5322,20.0403,63.7,91.0,98.0,12.73,ZA,1666491125.0
krasnoselkup,65.7,82.4667,28.09,96.0,100.0,12.64,RU,1666491375.0
cape town,-33.9258,18.4232,65.91,73.0,37.0,13.0,ZA,1666491227.0
severo-kurilsk,50.6789,156.125,40.41,74.0,100.0,5.35,RU,1666491139.0
rockingham,42.9668,-71.0995,54.52,81.0,100.0,2.68,US,1666491569.0
hambantota,6.1241,81.1185,79.18,81.0,100.0,11.95,LK,1666491238.0
sinnamary,5.3833,-52.95,79.54,88.0,81.0,11.12,GF,1666491284.0
gelemso,8.8167,40.5167,61.14,72.0,93.0,2.24,ET,1666491570.0
nikolskoye,59.7035,30.7861,37.78,95.0,39.0,5.91,RU,1666491203.0
kapaa,22.0752,-159.319,82.72,75.0,75.0,10.36,US,1666491251.0
mar del plata,-38.0023,-57.5575,49.87,68.0,0.0,5.01,AR,1666491171.0
norman wells,65.282,-126.8329,23.04,86.0,75.0,3.44,CA,1666491377.0
ushuaia,-54.8,-68.3,46.06,66.0,100.0,2.3,AR,1666491091.0
lubango,-14.9172,13.4925,64.0,71.0,56.0,1.68,AO,1666491575.0
sur,22.5667,59.5289,76.84,54.0,0.0,6.33,OM,1666491576.0
polson,47.6936,-114.1632,40.77,70.0,100.0,2.06,US,1666491576.0
cockburn town,21.4612,-71.1419,82.72,73.0,92.0,17.63,TC,1666491368.0
kavaratti,10.5669,72.642,81.63,74.0,83.0,5.57,IN,1666491577.0
aasiaat,68.7098,-52.8699,27.86,79.0,100.0,13.47,GL,1666491577.0
upernavik,72.7868,-56.1549,33.82,97.0,100.0,10.45,GL,1666491269.0
bethel,41.3712,-73.414,53.94,83.0,0.0,1.99,US,1666491078.0
kholm-zhirkovskiy,55.5189,33.4731,37.94,93.0,69.0,5.84,RU,1666491578.0
tuatapere,-46.1333,167.6833,64.8,47.0,100.0,6.53,NZ,1666491247.0
cabo san lucas,22.8909,-109.9124,82.62,84.0,100.0,13.02,MX,1666491240.0
solnechnyy,50.7214,136.6319,37.38,39.0,54.0,4.61,RU,1666491578.0
atuona,-9.8,-139.0333,76.91,67.0,5.0,15.52,PF,1666491244.0
busselton,-33.65,115.3333,63.12,66.0,100.0,2.3,AU,1666491578.0
klaksvik,62.2266,-6.589,43.72,79.0,100.0,16.62,FO,1666491431.0
agnibilekrou,7.1344,-3.2047,69.94,98.0,83.0,2.62,CI,1666491579.0
cherskiy,68.75,161.3,13.62,94.0,100.0,9.71,RU,1666491266.0
coquimbo,-29.9533,-71.3436,55.13,87.0,100.0,3.44,CL,1666491407.0
chuy,-33.6971,-53.4616,54.23,97.0,27.0,6.15,UY,1666491227.0
bluff,-46.6,168.3333,59.29,57.0,100.0,9.75,NZ,1666491229.0
aklavik,68.2191,-135.0107,10.44,98.0,86.0,3.44,CA,1666491270.0
trogir,43.5125,16.2517,64.45,72.0,0.0,4.61,HR,1666491579.0
arraial do cabo,-22.9661,-42.0278,72.05,90.0,93.0,11.79,BR,1666491154.0
humberto de campos,-2.5983,-43.4611,78.51,82.0,84.0,8.41,BR,1666491580.0
tabou,4.423,-7.3528,76.24,90.0,63.0,7.74,CI,1666491291.0
tadine,-21.55,167.8833,75.9,68.0,100.0,22.19,NC,1666491262.0
punta arenas,-53.15,-70.9167,42.91,87.0,75.0,5.75,CL,1666490940.0
castro,-24.7911,-50.0119,58.44,96.0,69.0,9.69,BR,1666491157.0
buxton,53.2574,-1.9098,55.29,92.0,100.0,1.99,GB,1666491580.0
ust-tsilma,65.441,52.1498,32.27,70.0,100.0,11.16,RU,1666491560.0
xuddur,4.1213,43.8894,69.89,86.0,22.0,8.14,SO,1666491581.0
albany,42.6001,-73.9662,54.66,60.0,88.0,2.24,US,1666491244.0
pringsewu,-5.3582,104.9744,77.25,90.0,100.0,4.29,ID,1666491581.0
ambanja,-13.6833,48.45,69.57,77.0,20.0,2.93,MG,1666491582.0
fare,-16.7,-151.0167,79.09,74.0,6.0,11.25,PF,1666491582.0
krusa,54.851,9.4013,53.24,99.0,99.0,10.36,DK,1666491582.0
batagay-alyta,67.8006,130.4114,9.41,86.0,47.0,3.15,RU,1666491583.0
blackwater,-23.5833,148.8833,84.24,43.0,1.0,6.73,AU,1666491583.0
dikson,73.5069,80.5464,24.39,88.0,98.0,13.6,RU,1666491246.0
whitehorse,60.7161,-135.0538,36.37,92.0,100.0,0.0,CA,1666491333.0
kankan,10.3854,-9.3057,72.25,88.0,100.0,3.49,GN,1666491584.0
vaini,-21.2,-175.2,73.56,78.0,75.0,13.8,TO,1666491584.0
cidreira,-30.1811,-50.2056,62.6,87.0,2.0,6.22,BR,1666491237.0
port elizabeth,-33.918,25.5701,61.32,95.0,1.0,4.0,ZA,1666491135.0
aykhal,66.0,111.5,25.16,94.0,100.0,21.18,RU,1666491585.0
lebu,-37.6167,-73.65,47.71,87.0,100.0,6.04,CL,1666491331.0
kutum,14.2,24.6667,69.06,25.0,34.0,4.36,SD,1666491590.0
tiksi,71.6872,128.8694,18.64,92.0,100.0,5.77,RU,1666491591.0
kodiak,57.79,-152.4072,38.71,87.0,100.0,9.22,US,1666491591.0
westport,41.1415,-73.3579,54.9,80.0,0.0,4.61,US,1666491530.0
barrow,71.2906,-156.7887,26.62,86.0,100.0,26.46,US,1666491591.0
qaanaaq,77.484,-69.3632,26.55,93.0,100.0,10.02,GL,1666491592.0
saldanha,-33.0117,17.9442,60.39,87.0,100.0,11.25,ZA,1666491592.0
thompson,55.7435,-97.8558,30.36,80.0,40.0,2.3,CA,1666491331.0
ishigaki,24.3448,124.1572,77.13,100.0,75.0,9.22,JP,1666491593.0
duma,34.7653,108.135,60.51,33.0,100.0,3.71,CN,1666491593.0
gizo,-8.103,156.8419,83.35,71.0,100.0,9.93,SB,1666491593.0
constitucion,-35.3333,-72.4167,49.48,89.0,100.0,5.84,CL,1666491594.0
san patricio,28.017,-97.5169,78.69,63.0,4.0,16.78,US,1666491594.0
gao,16.6362,1.637,77.9,16.0,85.0,17.47,ML,1666491313.0
bilma,18.6853,12.9164,72.54,27.0,1.0,10.69,NE,1666491594.0
tazovskiy,67.4667,78.7,27.5,93.0,96.0,9.24,RU,1666491595.0
yerbogachen,61.2767,108.0108,32.56,89.0,100.0,11.99,RU,1666491595.0
adra,36.7496,-3.0206,76.39,66.0,100.0,5.03,ES,1666491596.0
mahebourg,-20.4081,57.7,70.25,94.0,40.0,4.61,MU,1666491596.0
jamestown,42.097,-79.2353,62.19,61.0,0.0,5.75,US,1666491563.0
vostok,46.4856,135.8833,33.48,60.0,86.0,6.13,RU,1666491596.0
inirida,3.8653,-67.9239,76.71,93.0,100.0,2.84,CO,1666491597.0
nakamura,32.9833,132.9333,76.06,58.0,8.0,5.53,JP,1666491597.0
igrim,63.1906,64.4162,29.79,67.0,48.0,9.51,RU,1666491598.0
lorengau,-2.0226,147.2712,85.28,59.0,85.0,6.46,PG,1666491598.0
hermanus,-34.4187,19.2345,64.8,86.0,100.0,12.88,ZA,1666491598.0
port alfred,-33.5906,26.891,62.19,88.0,13.0,3.0,ZA,1666491599.0
inta,66.0317,60.1659,27.28,91.0,78.0,16.13,RU,1666491404.0
sistranda,63.7256,8.834,42.76,75.0,100.0,13.09,NO,1666491414.0
coos bay,43.3665,-124.2179,50.99,96.0,0.0,0.0,US,1666491338.0
partur,19.6,76.2167,68.02,74.0,0.0,5.32,IN,1666491599.0
waingapu,-9.6567,120.2641,86.9,65.0,100.0,5.93,ID,1666491600.0
yellowknife,62.456,-114.3525,24.57,73.0,29.0,5.01,CA,1666491221.0
kangaatsiaq,68.3065,-53.4641,33.4,78.0,100.0,12.26,GL,1666491600.0
chapais,49.7834,-74.8492,42.58,89.0,90.0,4.18,CA,1666491600.0
fairview,40.8126,-73.999,59.23,67.0,0.0,4.61,US,1666491601.0
walvis bay,-22.9575,14.5053,58.08,93.0,6.0,1.77,NA,1666491601.0
pevek,69.7008,170.3133,19.26,95.0,100.0,8.81,RU,1666491602.0
nabire,-3.3667,135.4833,87.53,61.0,81.0,3.78,ID,1666491386.0
leh,34.1667,77.5833,29.61,40.0,0.0,1.83,IN,1666491468.0
hami,42.8,93.45,58.39,25.0,0.0,2.24,CN,1666491602.0
erdaojiang,41.7764,126.0319,46.13,50.0,97.0,7.14,CN,1666491603.0
xinzhi,36.4989,111.7047,66.07,18.0,88.0,4.36,CN,1666491603.0
dingle,10.9995,122.6711,85.66,71.0,100.0,6.35,PH,1666491604.0
mareeba,-17.0,145.4333,90.45,49.0,0.0,4.16,AU,1666491604.0
corrente,-3.7367,-43.3394,74.79,89.0,25.0,4.7,BR,1666491610.0
cuamba,-14.8031,36.5372,68.18,46.0,3.0,4.25,MZ,1666491610.0
ribeira grande,38.5167,-28.7,67.77,72.0,100.0,5.01,PT,1666491220.0
bahia honda,22.9036,-83.1592,73.18,81.0,2.0,8.66,CU,1666491611.0
andenes,69.3143,16.1194,37.92,75.0,100.0,29.93,NO,1666491611.0
bugiri,0.5714,33.7417,63.5,91.0,7.0,1.5,UG,1666491612.0
upata,8.0086,-62.3989,76.19,93.0,18.0,3.42,VE,1666491612.0
namibe,-15.1961,12.1522,67.71,85.0,72.0,2.93,AO,1666491613.0
guerrero negro,27.9769,-114.0611,68.85,72.0,40.0,11.9,MX,1666491390.0
batabano,22.7164,-82.2881,70.41,82.0,0.0,10.31,CU,1666491614.0
lagunas,-5.2269,-75.6753,75.27,91.0,100.0,2.82,PE,1666491614.0
saskylakh,71.9167,114.0833,11.41,96.0,82.0,8.14,RU,1666491614.0
mangrol,21.1167,70.1167,78.58,55.0,6.0,9.98,IN,1666491615.0
hithadhoo,-0.6,73.0833,81.54,72.0,90.0,6.71,MV,1666491615.0
lagoa,39.05,-27.9833,64.24,76.0,100.0,18.68,PT,1666491616.0
teknaf,20.8624,92.3058,79.29,85.0,100.0,10.38,BD,1666491616.0
torbay,47.6666,-52.7314,52.27,92.0,20.0,17.27,CA,1666491343.0
khatanga,71.9667,102.5,26.13,90.0,100.0,15.08,RU,1666491617.0
iqaluit,63.7506,-68.5145,33.53,86.0,75.0,5.75,CA,1666491617.0
burgeo,47.6167,-57.6152,50.81,94.0,4.0,7.47,CA,1666491618.0
fort smith,35.3859,-94.3986,75.25,56.0,0.0,5.01,US,1666491330.0
yulara,-25.2406,130.9889,80.24,37.0,0.0,13.49,AU,1666491618.0
pekan,3.4836,103.3996,78.91,93.0,100.0,10.16,MY,1666491619.0
pacific grove,36.6177,-121.9166,59.7,76.0,0.0,18.99,US,1666491619.0
tobermory,45.2501,-81.6665,57.74,77.0,2.0,20.11,CA,1666491619.0
abu samrah,35.3029,37.1841,62.33,76.0,0.0,6.89,SY,1666491620.0
goundam,16.4145,-3.6708,83.62,17.0,100.0,7.09,ML,1666491620.0
voyinka,45.8699,33.9914,50.85,71.0,100.0,8.61,UA,1666491621.0
kalmar,56.6616,16.3616,49.96,92.0,100.0,3.44,SE,1666491621.0
san carlos de bariloche,-41.1456,-71.3082,51.55,50.0,40.0,0.0,AR,1666491622.0
merauke,-8.4667,140.3333,86.43,67.0,27.0,6.85,ID,1666491622.0
sortland,68.6949,15.4162,37.36,57.0,73.0,22.62,NO,1666491622.0
balikpapan,-1.2675,116.8289,83.39,84.0,20.0,5.75,ID,1666491623.0
clyde river,70.4692,-68.5914,25.03,86.0,100.0,10.36,CA,1666491624.0
tokur,53.1333,132.9,29.82,47.0,46.0,1.19,RU,1666491624.0
nikolayevsk-na-amure,53.1406,140.73,36.95,63.0,19.0,9.13,RU,1666491624.0
sangueya,10.7,-14.3667,75.6,92.0,84.0,0.51,GN,1666491625.0
menongue,-14.6585,17.691,64.29,73.0,43.0,4.61,AO,1666491625.0
kavieng,-2.5744,150.7967,84.49,62.0,86.0,5.1,PG,1666491626.0
kpandu,6.9954,0.2931,74.44,91.0,77.0,5.91,GH,1666491626.0
ponta do sol,32.6667,-17.1,68.72,82.0,62.0,5.53,PT,1666491626.0
isangel,-19.55,169.2667,80.71,89.0,100.0,13.8,VU,1666491627.0
nouadhibou,20.931,-17.0347,69.89,87.0,6.0,20.78,MR,1666491576.0
laguna,38.421,-121.4238,68.45,24.0,0.0,8.05,US,1666491632.0
yzeure,46.5644,3.355,57.09,86.0,100.0,5.35,FR,1666491633.0
luderitz,-26.6481,15.1594,58.32,82.0,36.0,16.08,NA,1666491633.0
itoman,26.1247,127.6694,84.58,88.0,75.0,11.5,JP,1666491634.0
billings,45.7833,-108.5007,48.67,87.0,100.0,6.91,US,1666491106.0
petrozavodsk,61.7849,34.3469,40.73,84.0,100.0,12.66,RU,1666491634.0
ginir,7.1333,40.7,57.49,87.0,100.0,1.97,ET,1666491634.0
carnarvon,-24.8667,113.6333,72.64,63.0,0.0,8.66,AU,1666491635.0
shimoda,34.6667,138.95,77.36,61.0,0.0,17.2,JP,1666491635.0
georgetown,5.4112,100.3354,82.33,84.0,40.0,2.3,MY,1666491457.0
turkistan,43.0,68.0,49.33,61.0,100.0,7.36,KZ,1666491636.0
kruisfontein,-34.0033,24.7314,56.88,97.0,4.0,2.21,ZA,1666491636.0
santa vitoria do palmar,-33.5189,-53.3681,55.53,97.0,50.0,6.04,BR,1666491636.0
pemangkat,1.1667,108.9667,81.88,78.0,92.0,1.05,ID,1666491637.0
esperance,-33.8667,121.9,64.99,50.0,1.0,13.78,AU,1666491637.0
te anau,-45.4167,167.7167,58.91,60.0,100.0,9.6,NZ,1666491638.0
los llanos de aridane,28.6585,-17.9182,67.75,87.0,20.0,3.44,ES,1666491638.0
bongandanga,1.5,21.05,68.76,98.0,35.0,1.57,CD,1666491638.0
tuktoyaktuk,69.4541,-133.0374,12.2,92.0,20.0,9.22,CA,1666491639.0
vao,-22.6667,167.4833,72.45,78.0,100.0,27.6,NC,1666491639.0
half moon bay,37.4636,-122.4286,62.11,66.0,75.0,17.27,US,1666491523.0
tasiilaq,65.6145,-37.6368,32.16,95.0,99.0,8.39,GL,1666491640.0
hilo,19.7297,-155.09,82.27,73.0,20.0,8.05,US,1666491640.0
port blair,11.6667,92.75,78.84,89.0,75.0,9.22,IN,1666491641.0
ngunguru,-35.6167,174.5,59.59,58.0,0.0,7.36,NZ,1666491642.0
san cristobal,7.7669,-72.225,71.78,95.0,87.0,1.39,VE,1666491642.0
san quintin,30.4833,-115.95,66.67,71.0,92.0,9.48,MX,1666491643.0
yeppoon,-23.1333,150.7333,82.18,51.0,0.0,3.69,AU,1666491643.0
jining,35.405,116.5814,67.1,32.0,1.0,2.46,CN,1666491643.0
mitsamiouli,-11.3847,43.2844,75.63,80.0,23.0,10.78,KM,1666491644.0
ormara,25.2088,64.6357,80.31,54.0,0.0,9.66,PK,1666491644.0
sao joao da barra,-21.6403,-41.0511,72.72,91.0,100.0,9.6,BR,1666491645.0
lasa,46.6166,10.7002,49.08,93.0,66.0,2.33,IT,1666491645.0
inhambane,-23.865,35.3833,71.04,86.0,66.0,4.0,MZ,1666491645.0
sulangan,11.1373,123.7228,83.71,73.0,68.0,4.05,PH,1666491646.0
santiago del estero,-27.7951,-64.2615,65.93,58.0,0.0,11.36,AR,1666491445.0
keller,32.9346,-97.2517,79.74,52.0,75.0,25.32,US,1666491372.0
kang,-23.6752,22.7876,74.71,33.0,53.0,6.96,BW,1666491646.0
vikhorevka,56.1201,101.1636,44.19,71.0,100.0,8.14,RU,1666491647.0
yangambi,0.8102,24.4336,68.7,97.0,100.0,1.88,CD,1666491647.0
viedma,-40.8135,-62.9967,49.05,42.0,0.0,16.87,AR,1666491647.0
limulan,6.5853,124.0619,82.13,80.0,100.0,5.7,PH,1666491648.0
katsuura,35.1333,140.3,73.76,64.0,14.0,13.47,JP,1666491648.0
azangaro,-14.9167,-70.2167,48.65,44.0,78.0,1.19,PE,1666491648.0
kamenka,51.3223,42.7678,37.13,81.0,96.0,6.11,RU,1666491649.0
fort nelson,58.8053,-122.7002,27.99,83.0,75.0,3.44,CA,1666491649.0
ascension,30.2169,-90.9001,69.28,80.0,0.0,4.61,US,1666491649.0
sepuka,-4.75,34.5333,62.22,74.0,58.0,11.54,TZ,1666491655.0
chalus,36.655,51.4204,60.26,94.0,40.0,4.61,IR,1666491655.0
matamoros,25.5333,-103.25,77.11,33.0,75.0,2.3,MX,1666491434.0
gaomi,36.3833,119.7528,60.21,47.0,0.0,4.56,CN,1666491656.0
villazon,-22.0866,-65.5942,44.71,65.0,90.0,8.88,BO,1666491656.0
sakakah,29.9697,40.2064,71.42,37.0,0.0,6.89,SA,1666491364.0
antalaha,-14.9003,50.2788,71.37,86.0,99.0,3.67,MG,1666491657.0
kismayo,-0.3582,42.5454,77.36,83.0,11.0,11.36,SO,1666491657.0
namatanai,-3.6667,152.4333,85.06,62.0,100.0,6.4,PG,1666491657.0
sitka,57.0531,-135.33,44.49,81.0,75.0,5.75,US,1666491658.0
van,38.4924,43.3831,42.15,87.0,75.0,3.44,TR,1666491658.0
omboue,-1.5746,9.2618,75.79,92.0,100.0,6.2,GA,1666491659.0
cayenne,4.9333,-52.3333,80.64,83.0,0.0,2.3,GF,1666491659.0
carmo do paranaiba,-19.0008,-46.3161,71.74,72.0,90.0,3.27,BR,1666491659.0
taga,46.95,24.05,55.72,91.0,100.0,13.82,RO,1666491660.0
jever,53.5833,7.9,51.03,92.0,100.0,6.82,DE,1666491660.0
sosnovo-ozerskoye,52.5249,111.5418,29.89,69.0,6.0,4.81,RU,1666491660.0
moron,-34.6534,-58.6198,53.98,76.0,23.0,4.47,AR,1666491445.0
beira,-19.8436,34.8389,77.09,88.0,20.0,8.05,MZ,1666491661.0
mehamn,71.0357,27.8492,35.55,93.0,100.0,9.22,NO,1666491661.0
arman,59.7,150.1667,21.02,53.0,100.0,7.49,RU,1666491662.0
ligayan,4.6533,119.4706,83.77,67.0,100.0,1.01,PH,1666491662.0
palimbang,6.2106,124.1894,83.46,76.0,100.0,5.12,PH,1666491662.0
vila velha,-20.3297,-40.2925,76.95,86.0,100.0,5.01,BR,1666491546.0
tashtagol,52.7657,87.8894,46.15,66.0,100.0,5.46,RU,1666491663.0
senneterre,48.3835,-77.2328,48.36,92.0,52.0,5.19,CA,1666491663.0
kristiansund,63.1115,7.732,42.85,93.0,100.0,8.05,NO,1666491664.0
zverinogolovskoye,54.4586,64.8542,28.42,74.0,12.0,11.88,RU,1666491664.0
airai,-8.9266,125.4092,77.85,47.0,42.0,1.7,TL,1666491664.0
banda aceh,5.5577,95.3222,83.39,69.0,65.0,7.67,ID,1666491665.0
acapulco,16.8634,-99.8901,80.42,83.0,40.0,2.3,MX,1666491494.0
new glasgow,45.5834,-62.6486,56.79,92.0,90.0,8.79,CA,1666491665.0
mugur-aksy,50.35,90.5,34.32,55.0,38.0,7.92,RU,1666491666.0
broken hill,-31.95,141.4333,61.9,86.0,100.0,2.66,AU,1666491666.0
ucluelet,48.9329,-125.5528,48.09,83.0,7.0,7.76,CA,1666491667.0
ayan,56.45,138.1667,35.42,46.0,48.0,8.5,RU,1666491667.0
beatrice,40.2681,-96.747,68.27,49.0,0.0,9.22,US,1666491668.0
miles city,46.4083,-105.8406,50.97,66.0,0.0,16.11,US,1666491668.0
road town,18.4167,-64.6167,80.69,75.0,8.0,12.82,VG,1666491378.0
zheshart,62.0731,49.5733,29.91,82.0,100.0,11.12,RU,1666491669.0
festus,38.2206,-90.396,71.73,60.0,100.0,12.97,US,1666491509.0
eidsvag,62.7767,8.0668,42.85,87.0,100.0,1.3,NO,1666491669.0
grindavik,63.8424,-22.4338,43.27,100.0,100.0,13.8,IS,1666491669.0
saravan,39.7196,45.6483,44.02,89.0,98.0,0.56,AM,1666491670.0
olinda,-8.0089,-34.8553,77.27,78.0,32.0,9.69,BR,1666491436.0
sao raimundo nonato,-9.0153,-42.6994,79.11,46.0,9.0,1.03,BR,1666491461.0
bengkulu,-3.8004,102.2655,81.63,67.0,100.0,1.77,ID,1666491676.0
sakete,6.7362,2.6587,74.41,94.0,29.0,3.4,BJ,1666491677.0
yenagoa,4.9247,6.2642,75.07,94.0,72.0,3.58,NG,1666491678.0
winsum,53.33,6.5208,53.58,95.0,98.0,7.67,NL,1666491678.0
lodja,-3.4833,23.4333,66.87,97.0,78.0,0.49,CD,1666491678.0
severodvinsk,64.5635,39.8302,39.31,90.0,100.0,20.27,RU,1666491679.0
narsaq,60.9167,-46.05,37.62,94.0,100.0,8.12,GL,1666491679.0
sarkand,45.41,79.9186,54.32,44.0,100.0,6.35,KZ,1666491680.0
mount gambier,-37.8333,140.7667,56.57,74.0,100.0,13.31,AU,1666491680.0
porto santo,33.072,-16.3415,66.58,77.0,20.0,9.22,PT,1666491681.0
telbang,16.1722,120.0592,83.84,79.0,100.0,6.4,PH,1666491681.0
rio bravo,25.9833,-98.1,78.08,69.0,0.0,11.5,MX,1666491512.0
mafinga,-7.25,35.0667,66.43,65.0,82.0,3.29,TZ,1666491681.0
makakilo city,21.3469,-158.0858,86.32,54.0,0.0,12.66,US,1666491682.0
bairiki,1.3292,172.9752,86.0,66.0,40.0,8.05,KI,1666491682.0
paamiut,61.994,-49.6678,36.66,97.0,100.0,21.83,GL,1666491683.0
senanga,-16.1167,23.2667,73.47,34.0,89.0,6.13,ZM,1666491683.0
porbandar,21.6422,69.6093,78.98,46.0,6.0,8.9,IN,1666491684.0
buala,-8.145,159.5921,83.57,76.0,100.0,10.51,SB,1666491684.0
mount isa,-20.7333,139.5,95.04,13.0,0.0,12.3,AU,1666491685.0
leshukonskoye,64.8989,45.7622,33.67,96.0,100.0,12.75,RU,1666491685.0
kuching,1.55,110.3333,84.42,79.0,40.0,3.44,MY,1666491685.0
marsa matruh,31.3525,27.2453,69.89,70.0,27.0,13.51,EG,1666491686.0
kichera,55.9375,110.0997,32.49,85.0,100.0,1.81,RU,1666491686.0
berlevag,70.8578,29.0864,35.6,80.0,75.0,16.11,NO,1666491687.0
ambilobe,-13.2,49.05,67.41,86.0,27.0,3.18,MG,1666491687.0
surt,31.2089,16.5887,68.79,59.0,0.0,5.99,LY,1666491687.0
mairana,-18.1167,-63.9333,57.96,65.0,100.0,3.6,BO,1666491688.0
longyearbyen,78.2186,15.6401,19.24,68.0,0.0,5.75,SJ,1666491688.0
nara,34.6851,135.8049,76.5,35.0,9.0,7.43,JP,1666491540.0
padang,-0.9492,100.3543,77.05,78.0,84.0,0.89,ID,1666491689.0
pontes e lacerda,-15.2261,-59.3353,70.99,98.0,100.0,1.9,BR,1666491689.0
mastic beach,40.7668,-72.8521,58.39,87.0,75.0,0.0,US,1666491689.0
nishihara,26.1842,127.7558,83.86,92.0,40.0,11.5,JP,1666491690.0
sao sebastiao,-23.76,-45.4097,68.11,91.0,31.0,3.06,BR,1666491582.0
qinzhou,21.95,108.6167,82.53,52.0,5.0,9.28,CN,1666491690.0
santa isabel do rio negro,-0.4139,-65.0192,76.37,91.0,100.0,3.0,BR,1666491691.0
victoria,22.2855,114.1577,87.19,59.0,94.0,1.99,HK,1666491450.0
marystown,47.1666,-55.1483,50.94,91.0,0.0,9.98,CA,1666491691.0
caravelas,-17.7125,-39.2481,76.19,84.0,100.0,9.55,BR,1666491691.0
ganzhou,28.8184,115.4327,76.41,34.0,9.0,11.56,CN,1666491692.0
terre-de-bas,15.8501,-61.6442,74.71,75.0,3.0,13.76,GP,1666491692.0
hyeres,43.1167,6.1167,69.42,82.0,100.0,5.75,FR,1666491693.0
peruibe,-24.32,-46.9983,65.98,94.0,14.0,1.95,BR,1666491693.0
torres,-29.3353,-49.7269,65.82,82.0,86.0,3.91,BR,1666491517.0
berdigestyakh,62.0989,126.6992,28.15,92.0,100.0,4.94,RU,1666491698.0
sao filipe,14.8961,-24.4956,79.09,71.0,100.0,5.08,CV,1666491699.0
nsanje,-16.92,35.262,72.77,82.0,0.0,4.03,MW,1666491699.0
vanimo,-2.6741,141.3028,82.36,81.0,99.0,5.23,PG,1666491700.0
mahon,39.8885,4.2658,72.16,100.0,100.0,8.05,ES,1666491700.0
lavrentiya,65.5833,-171.0,32.81,99.0,100.0,7.4,RU,1666491700.0
rio cuarto,-33.1307,-64.3499,51.57,66.0,0.0,9.22,AR,1666491407.0
romitan,39.9343,64.3814,49.95,93.0,40.0,4.61,UZ,1666491701.0
gariaband,20.635,82.0614,66.47,75.0,2.0,3.09,IN,1666491701.0
fuerte olimpo,-21.0415,-57.8738,69.22,70.0,0.0,5.55,PY,1666491702.0
nechi,8.0942,-74.7757,74.34,99.0,100.0,2.44,CO,1666491702.0
tautira,-17.7333,-149.15,77.88,76.0,7.0,8.95,PF,1666491703.0
desaguadero,-16.5656,-69.0417,47.68,53.0,6.0,6.2,PE,1666491703.0
santa rosa,14.3122,121.1114,89.1,77.0,45.0,6.98,PH,1666491703.0
touros,-5.1989,-35.4608,78.15,78.0,5.0,13.06,BR,1666491614.0
goure,13.9835,10.2704,78.26,19.0,6.0,9.24,NE,1666491704.0
baykit,61.67,96.37,35.67,98.0,100.0,2.91,RU,1666491704.0
harper,4.375,-7.7169,76.46,89.0,97.0,8.16,LR,1666491704.0
kloulklubed,7.0419,134.2556,83.01,74.0,73.0,7.56,PW,1666491705.0
kapit,2.0167,112.9333,85.86,68.0,83.0,0.89,MY,1666491705.0
leningradskiy,69.3833,178.4167,27.34,97.0,100.0,7.76,RU,1666491706.0
kanniyakumari,8.0833,77.5667,79.38,81.0,92.0,8.52,IN,1666491706.0
baghdad,33.3406,44.4009,75.02,41.0,7.0,8.05,IQ,1666491582.0
homer,59.6425,-151.5483,40.87,77.0,20.0,18.01,US,1666491706.0
bafata,12.1667,-14.75,75.13,90.0,95.0,2.42,GW,1666491707.0
maningrida,-12.0667,134.2667,94.08,50.0,66.0,11.36,AU,1666491707.0
broome,42.2506,-75.833,52.54,73.0,51.0,3.47,US,1666491707.0
bay roberts,47.5999,-53.2648,51.55,94.0,0.0,5.01,CA,1666491708.0
nome,64.5011,-165.4064,37.47,87.0,100.0,16.11,US,1666491708.0
kuytun,54.3419,101.5036,38.44,68.0,37.0,11.23,RU,1666491708.0
ancud,-41.8697,-73.8203,43.93,79.0,100.0,7.38,CL,1666491503.0
plettenberg bay,-34.0527,23.3716,60.71,89.0,0.0,4.0,ZA,1666491709.0
okha,53.5739,142.9478,37.53,55.0,94.0,9.71,RU,1666491709.0
chara,56.9064,118.2631,22.41,62.0,7.0,2.33,RU,1666491424.0
sancti spiritus,21.9297,-79.4425,71.96,91.0,0.0,5.32,CU,1666491710.0
adrar,20.5022,-10.0711,79.88,17.0,0.0,7.02,MR,1666491710.0
ilinskoye-khovanskoye,56.9718,39.7684,39.22,84.0,100.0,8.12,RU,1666491711.0
pisco,-13.7,-76.2167,60.85,82.0,0.0,6.91,PE,1666491712.0
timmins,48.4669,-81.3331,48.02,76.0,75.0,3.44,CA,1666491683.0
bistrica,47.1332,24.5001,50.65,96.0,100.0,6.46,RO,1666491712.0
saint george,37.1041,-113.5841,73.99,36.0,100.0,23.02,US,1666491661.0
fiumicino,41.7675,12.2291,69.91,82.0,75.0,6.91,IT,1666491712.0
la troncal,-2.4,-79.3333,75.76,78.0,99.0,1.92,EC,1666491713.0
nouakchott,18.0858,-15.9785,76.93,71.0,3.0,13.51,MR,1666491495.0
mokhsogollokh,61.4681,128.9203,27.75,86.0,100.0,5.12,RU,1666491713.0
innisfail,-17.5333,146.0333,85.71,62.0,0.0,9.98,AU,1666491714.0
san lorenzo,-25.3333,-57.5333,68.94,77.0,0.0,5.99,PY,1666491719.0
sao lourenco do sul,-31.3653,-51.9783,61.29,85.0,86.0,4.59,BR,1666491719.0
juneau,58.3019,-134.4197,43.21,97.0,75.0,3.44,US,1666491720.0
ronne,55.1009,14.7066,55.31,100.0,100.0,1.14,DK,1666491552.0
rio grande,-32.035,-52.0986,60.39,88.0,99.0,5.73,BR,1666491720.0
carrascal,9.3703,125.9492,85.66,70.0,95.0,4.7,PH,1666491721.0
erenhot,43.6475,111.9767,44.01,34.0,0.0,7.87,CN,1666491721.0
pitimbu,-7.4706,-34.8086,77.29,80.0,20.0,10.94,BR,1666491721.0
brackenheim,49.0797,9.065,55.08,100.0,82.0,4.47,DE,1666491722.0
sakaiminato,35.55,133.2333,69.78,60.0,20.0,5.75,JP,1666491722.0
antofagasta,-23.65,-70.4,59.31,74.0,25.0,2.68,CL,1666491501.0
kurilsk,45.2333,147.8833,47.73,83.0,79.0,26.42,RU,1666491723.0
port-cartier,50.0334,-66.8654,44.28,81.0,69.0,4.5,CA,1666491723.0
sibolga,1.7427,98.7792,82.63,72.0,100.0,2.13,ID,1666491723.0
hay river,60.8156,-115.7999,28.38,74.0,75.0,4.61,CA,1666491724.0
nanhai,30.1282,111.7784,71.37,38.0,98.0,7.25,CN,1666491724.0
bandarbeyla,9.4942,50.8122,77.02,84.0,45.0,1.95,SO,1666491725.0
san vicente,-26.6167,-54.1333,56.71,98.0,0.0,2.53,AR,1666491725.0
calabozo,8.9242,-67.4293,80.26,74.0,88.0,2.35,VE,1666491726.0
bo rai,12.5728,102.5371,81.99,81.0,89.0,4.41,TH,1666491726.0
monterrey,25.6667,-100.3167,76.57,69.0,100.0,4.32,MX,1666491490.0
deputatskiy,69.3,139.9,1.78,93.0,100.0,5.35,RU,1666491727.0
along,28.1667,94.7667,71.67,48.0,76.0,1.32,IN,1666491727.0
phibun mangsahan,15.2447,105.2291,84.09,73.0,98.0,5.61,TH,1666491727.0
tortoli,39.9256,9.6572,67.82,77.0,0.0,14.97,IT,1666491728.0
ningyang,35.7642,116.7914,66.58,30.0,0.0,1.28,CN,1666491728.0
morehead,37.2711,-87.1764,64.85,68.0,0.0,4.61,US,1666491499.0
sao felix do xingu,-6.6447,-51.995,72.27,98.0,100.0,0.51,BR,1666491728.0
west bay,19.3667,-81.4167,80.67,89.0,20.0,11.5,KY,1666491729.0
dunedin,-45.8742,170.5036,63.05,51.0,18.0,1.81,NZ,1666491551.0
ketchikan,55.3422,-131.6461,41.47,81.0,0.0,0.0,US,1666491597.0
ingham,42.6,-84.3833,64.26,64.0,0.0,8.05,US,1666491730.0
itarema,-2.9248,-39.9167,79.05,76.0,0.0,14.03,BR,1666491730.0
qasigiannguit,68.8193,-51.1922,39.45,73.0,100.0,10.47,GL,1666491730.0
high level,58.5169,-117.136,28.51,100.0,100.0,8.05,CA,1666491731.0
jalu,29.0331,21.5482,62.96,55.0,0.0,7.63,LY,1666491731.0
richards bay,-28.783,32.0377,66.34,84.0,100.0,7.61,ZA,1666491732.0
wenling,28.3669,121.36,72.63,63.0,3.0,16.42,CN,1666491732.0
tshikapa,-6.4167,20.8,68.7,85.0,99.0,1.43,CD,1666491733.0
talnakh,69.4865,88.3972,27.21,94.0,100.0,7.11,RU,1666491733.0
hofn,64.2539,-15.2082,37.67,73.0,100.0,7.34,IS,1666491733.0
nantucket,41.2835,-70.0995,57.15,93.0,0.0,4.61,US,1666491679.0
myitkyina,25.3833,97.4,78.87,64.0,28.0,2.62,MM,1666491734.0
kolokani,13.5728,-8.0339,77.22,42.0,99.0,4.05,ML,1666491734.0
anloga,5.7947,0.8973,79.2,82.0,52.0,7.63,GH,1666491740.0
kumasi,6.6885,-1.6244,70.18,98.0,55.0,2.39,GH,1666491740.0
tiebissou,7.1574,-5.2257,75.04,98.0,63.0,3.69,CI,1666491741.0
partinico,38.0439,13.12,65.93,36.0,0.0,4.61,IT,1666491741.0
kaitangata,-46.2817,169.8464,67.08,39.0,67.0,3.02,NZ,1666491742.0
moerai,-22.4333,-151.3333,74.3,77.0,72.0,15.28,PF,1666491742.0
alexandria,31.2156,29.9553,70.92,70.0,0.0,6.29,EG,1666491742.0
kahului,20.8947,-156.47,87.82,63.0,20.0,20.71,US,1666491743.0
smirnykh,49.75,142.8333,37.15,40.0,100.0,8.57,RU,1666491743.0
ginda,30.6945,78.4932,52.86,48.0,0.0,5.23,IN,1666491744.0
lompoc,34.6391,-120.4579,62.56,77.0,100.0,12.66,US,1666491744.0
xichang,27.8964,102.2634,64.27,82.0,70.0,0.54,CN,1666491745.0
coahuayana,18.7333,-103.6833,74.97,95.0,100.0,2.51,MX,1666491745.0
requena,39.4883,-1.1004,58.51,67.0,100.0,3.06,ES,1666491746.0
vestmanna,62.1564,-7.1664,41.92,87.0,100.0,6.91,FO,1666491746.0
sisimiut,66.9395,-53.6735,35.01,78.0,100.0,10.31,GL,1666491746.0
coxim,-18.5067,-54.76,72.97,87.0,73.0,3.65,BR,1666491543.0
mosquera,4.7059,-74.2302,57.29,94.0,100.0,8.05,CO,1666491664.0
port-gentil,-0.7193,8.7815,77.99,87.0,100.0,7.34,GA,1666491747.0
vicuna,-30.0319,-70.7081,47.93,49.0,0.0,0.54,CL,1666491654.0
yurginskoye,56.8189,67.3921,26.91,85.0,13.0,12.3,RU,1666491677.0
grand forks,47.9417,-97.4337,51.53,66.0,75.0,10.36,US,1666491606.0
poum,-20.2333,164.0167,75.49,88.0,100.0,26.19,NC,1666491748.0
amahai,-3.3333,128.9167,86.88,63.0,71.0,3.06,ID,1666491748.0
palermo,37.8167,13.5833,61.92,76.0,27.0,2.06,IT,1666491745.0
taree,-31.9,152.4667,65.26,90.0,100.0,4.47,AU,1666491748.0
gat,31.61,34.7642,67.41,71.0,0.0,4.47,IL,1666491749.0
ghugus,19.9333,79.1333,68.0,79.0,0.0,2.82,IN,1666491749.0
seoul,37.5683,126.9778,61.99,56.0,0.0,5.82,KR,1666491129.0
illapel,-31.6308,-71.1653,60.04,69.0,12.0,1.16,CL,1666491749.0
ejido,8.5514,-71.2375,69.22,95.0,91.0,1.7,VE,1666491750.0
asahikawa,43.7678,142.3703,45.61,93.0,75.0,8.05,JP,1666491750.0
huarmey,-10.0681,-78.1522,61.41,86.0,67.0,8.99,PE,1666491751.0
eusebio,-3.89,-38.4506,79.95,80.0,5.0,10.4,BR,1666491751.0
porto novo,6.4965,2.6036,76.37,90.0,41.0,3.4,BJ,1666491751.0
lazaro cardenas,17.9583,-102.2,77.23,86.0,100.0,2.3,MX,1666491752.0
jibuti,11.5,42.5,72.88,78.0,7.0,11.61,DJ,1666491752.0
brae,60.3964,-1.353,51.75,92.0,100.0,15.59,GB,1666491753.0
sri aman,1.2376,111.4621,84.25,79.0,20.0,1.14,MY,1666491753.0
culebra,18.303,-65.301,80.69,82.0,2.0,5.99,PR,1666491753.0
bafoulabe,13.8065,-10.8321,80.85,64.0,100.0,3.78,ML,1666491754.0
karangampel,-6.4622,108.4519,82.98,66.0,97.0,3.74,ID,1666491754.0
burley,42.5357,-113.7928,39.2,75.0,0.0,11.5,US,1666491754.0
yago,21.8333,-105.0667,77.11,96.0,100.0,1.21,MX,1666491755.0
salalah,17.0151,54.0924,75.29,73.0,40.0,3.44,OM,1666491755.0
port macquarie,-31.4333,152.9167,66.13,85.0,100.0,10.69,AU,1666491755.0
killarney,52.05,-9.5167,55.35,98.0,100.0,4.72,IE,1666491761.0
taoudenni,22.6783,-3.9836,81.09,16.0,18.0,8.68,ML,1666491761.0
arukula,59.3644,25.0772,37.31,93.0,75.0,3.44,EE,1666491762.0
soligalich,59.0778,42.2864,34.97,97.0,100.0,7.67,RU,1666491762.0
obligado,-27.0333,-55.6333,60.78,91.0,0.0,3.24,PY,1666491762.0
udachnyy,66.4167,112.4,25.32,90.0,100.0,21.81,RU,1666491763.0
houma,29.5958,-90.7195,66.99,92.0,100.0,4.61,US,1666491731.0
hasaki,35.7333,140.8333,75.29,57.0,39.0,3.94,JP,1666491763.0
urumqi,43.801,87.6005,45.55,66.0,0.0,2.24,CN,1666491763.0
gamba,-2.65,10.0,75.87,91.0,100.0,5.12,GA,1666491764.0
yumen,40.2833,97.2,52.39,25.0,4.0,3.11,CN,1666491764.0
da lat,11.9465,108.4419,73.83,62.0,71.0,2.1,VN,1666491765.0
codrington,-38.2667,141.9667,56.37,77.0,100.0,18.66,AU,1666491765.0
ostrovnoy,68.0531,39.5131,35.19,85.0,100.0,24.11,RU,1666491765.0
makat,47.6469,53.3463,37.6,52.0,23.0,6.22,KZ,1666491766.0
ocos,14.5094,-92.1933,78.98,75.0,76.0,4.45,GT,1666491766.0
ciudad bolivar,8.1222,-63.5497,80.92,75.0,65.0,9.82,VE,1666491448.0
sorland,67.667,12.6934,39.06,61.0,100.0,20.02,NO,1666491766.0
devils lake,48.1128,-98.8651,48.18,83.0,40.0,14.97,US,1666491767.0
kimbe,-5.5502,150.1429,76.03,94.0,100.0,4.32,PG,1666491767.0
formosa,-26.1775,-58.1781,69.78,83.0,0.0,0.0,AR,1666491619.0
havre-saint-pierre,50.2334,-63.5986,46.4,93.0,0.0,3.44,CA,1666491768.0
pacifica,37.6138,-122.4869,62.53,68.0,20.0,28.99,US,1666491768.0
luwuk,-0.9516,122.7875,87.73,62.0,87.0,2.62,ID,1666491768.0
geraldton,-28.7667,114.6,70.43,62.0,81.0,9.17,AU,1666491769.0
winnemucca,40.973,-117.7357,45.12,32.0,98.0,18.84,US,1666491769.0
tongzi,28.7829,105.0877,71.96,60.0,98.0,2.3,CN,1666491770.0
sarangani,5.4033,125.4636,82.81,74.0,99.0,10.42,PH,1666491770.0
buluang,13.3068,123.3425,88.12,64.0,100.0,0.56,PH,1666491771.0
karratha,-20.7377,116.8463,85.08,32.0,4.0,14.32,AU,1666491771.0
fort wellington,6.4,-57.6,80.67,84.0,9.0,9.37,GY,1666491771.0
coihaique,-45.5752,-72.0662,45.21,56.0,20.0,0.0,CL,1666491772.0
lethem,3.3803,-59.7968,81.05,67.0,35.0,4.68,GY,1666491772.0
yar,58.249,52.1026,25.45,91.0,30.0,7.49,RU,1666491773.0
windhoek,-22.5594,17.0832,66.11,58.0,9.0,4.7,NA,1666491539.0
copiapo,-27.3667,-70.3333,53.29,60.0,0.0,1.61,CL,1666491773.0
hualmay,-11.0964,-77.6139,61.61,83.0,80.0,9.19,PE,1666491774.0
lingao,19.9103,109.6859,77.52,68.0,73.0,4.14,CN,1666491774.0
voloshka,61.3314,40.0858,36.63,88.0,100.0,11.41,RU,1666491558.0
goderich,43.7501,-81.7165,61.92,63.0,0.0,10.36,CA,1666491774.0
beaupre,47.0443,-70.8953,62.26,76.0,1.0,2.3,CA,1666491775.0
puerto colombia,10.9878,-74.9547,78.89,78.0,90.0,4.32,CO,1666491775.0
mandera,3.9366,41.867,76.95,70.0,75.0,12.62,KE,1666491777.0
gerede,40.8008,32.1969,38.59,35.0,6.0,6.38,TR,1666491779.0
mayaky,47.4408,29.5599,50.86,76.0,100.0,3.76,UA,1666491780.0
sabzevar,36.2126,57.6819,54.68,82.0,0.0,9.22,IR,1666491781.0
mongu,-15.2484,23.1274,73.87,39.0,82.0,5.01,ZM,1666491788.0
naica,27.85,-105.4833,75.04,33.0,84.0,7.2,MX,1666491788.0
port pirie,-33.1833,138.0167,59.09,87.0,100.0,9.42,AU,1666491789.0
xinxiang,35.3089,113.8672,67.55,24.0,6.0,2.19,CN,1666491789.0
paragominas,-2.9667,-47.4833,73.04,93.0,7.0,3.56,BR,1666491790.0
ust-nera,64.5667,143.2,3.63,93.0,99.0,4.41,RU,1666491790.0
sergeyevka,53.88,67.4158,26.96,85.0,11.0,14.47,KZ,1666491790.0
casablanca,33.5928,-7.6192,71.33,78.0,100.0,4.0,MA,1666491791.0
chunskiy,56.0815,99.6342,40.26,79.0,100.0,5.06,RU,1666491791.0
aniva,46.7144,142.5294,42.91,71.0,100.0,8.81,RU,1666491791.0
kirakira,-10.4544,161.9205,82.42,79.0,100.0,8.37,SB,1666491792.0
lata,40.1629,-8.3327,61.81,86.0,100.0,11.01,PT,1666491792.0
takoradi,4.8845,-1.7554,77.04,87.0,100.0,4.18,GH,1666491593.0
parrita,9.5201,-84.3225,77.13,91.0,99.0,4.85,CR,1666491793.0
show low,34.2542,-110.0298,58.08,74.0,0.0,23.02,US,1666491655.0
mirabad,30.4362,61.8383,64.6,59.0,0.0,11.88,AF,1666491793.0
greeley,40.4233,-104.7091,63.01,23.0,0.0,6.91,US,1666491519.0
barra patuca,15.8,-84.2833,77.47,85.0,27.0,4.43,HN,1666491794.0
iberia,29.9502,-91.7507,69.87,77.0,0.0,8.05,US,1666491794.0
kozachi laheri,46.7037,32.9776,56.7,72.0,100.0,13.8,UA,1666491794.0
mayo,38.8876,-76.5119,58.95,85.0,0.0,0.0,US,1666491795.0
portland,45.5234,-122.6762,53.8,76.0,20.0,8.01,US,1666491307.0
ordino,42.5976,1.5257,51.13,82.0,82.0,7.81,AD,1666491795.0
palencia,42.4167,-4.5,53.92,73.0,98.0,21.7,ES,1666491796.0
otacilio costa,-27.4831,-50.1219,56.91,98.0,59.0,3.71,BR,1666491796.0
fairbanks,64.8378,-147.7164,33.1,94.0,100.0,0.0,US,1666491796.0
saint-germain-de-grantham,45.8334,-72.5658,56.21,72.0,0.0,7.65,CA,1666491797.0
port hardy,50.6996,-127.4199,42.98,87.0,20.0,5.75,CA,1666491797.0
barga,44.0742,10.4808,66.97,95.0,98.0,1.97,IT,1666491797.0
fort frances,48.5999,-93.4003,53.82,69.0,0.0,10.36,CA,1666491798.0
kolobovo,56.702,41.3417,37.35,90.0,98.0,5.97,RU,1666491798.0
tigil,57.8,158.6667,30.69,72.0,42.0,4.99,RU,1666491799.0
manta,-0.95,-80.7333,73.18,78.0,75.0,6.91,EC,1666491799.0
avenal,36.0041,-120.129,64.96,34.0,3.0,6.53,US,1666491799.0
anadyr,64.75,177.4833,27.1,80.0,75.0,6.71,RU,1666491800.0
jian,27.1172,114.9793,77.47,31.0,9.0,11.79,CN,1666491692.0
pokhara,28.2333,83.9833,64.56,40.0,0.0,5.39,NP,1666491800.0
diffa,13.3154,12.6113,80.78,21.0,59.0,8.55,NE,1666491801.0
dovers,12.8833,-61.1833,82.06,79.0,5.0,13.62,VC,1666491801.0
tecpan,14.7623,-90.9947,58.89,94.0,80.0,3.24,GT,1666491802.0
bonfim,3.0833,-59.95,81.97,66.0,10.0,2.19,BR,1666491802.0
livingston,55.9029,-3.5226,54.59,97.0,40.0,5.75,GB,1666491803.0
pyu,18.4833,96.4333,79.14,85.0,42.0,0.87,MM,1666491803.0
vila franca do campo,37.7167,-25.4333,64.81,77.0,100.0,11.54,PT,1666491804.0
margate,51.3813,1.3862,61.3,92.0,100.0,1.99,GB,1666491804.0
kropotkin,45.4375,40.5756,44.89,69.0,49.0,5.14,RU,1666491805.0
mildura,-34.2,142.15,67.06,94.0,100.0,9.22,AU,1666491779.0
baruun-urt,46.6806,113.2792,38.66,37.0,0.0,8.14,MN,1666491810.0
dhidhdhoo,6.8833,73.1,80.55,82.0,79.0,10.98,MV,1666491707.0
atambua,-9.1061,124.8925,86.94,56.0,31.0,4.7,ID,1666491811.0
le vauclin,14.5452,-60.8388,79.84,89.0,20.0,4.61,MQ,1666491811.0
san antonio,29.4241,-98.4936,78.26,65.0,0.0,19.57,US,1666491679.0
pangnirtung,66.1451,-65.7125,30.06,94.0,100.0,7.16,CA,1666491811.0
coolum beach,-26.5333,153.1,70.11,98.0,100.0,17.11,AU,1666491812.0
saint-georges,12.0564,-61.7485,82.08,83.0,40.0,11.5,GD,1666491554.0
kozhva,65.1073,57.0459,30.47,81.0,100.0,10.63,RU,1666491812.0
kualakapuas,-3.0091,114.3876,86.47,69.0,95.0,0.87,ID,1666491812.0
vestmannaeyjar,63.4427,-20.2734,42.53,79.0,100.0,18.9,IS,1666491813.0
madaba,31.5833,35.6667,60.71,66.0,0.0,3.53,JO,1666491814.0
bubaque,11.2833,-15.8333,83.1,70.0,92.0,4.27,GW,1666491814.0
